stop_id,stop_name,stop_lat,stop_lon
1722313720,Calle 18,5.848111,-73.0359751
1722319153,Calle 18,5.8471824,-73.0359882
1722313694,Calle 18,5.8457763,-73.0361934
1722313688,Calle 18,5.8446463,-73.0360861
2246917601,Calle 18,5.8437078,-73.0358137
5918551797,Calle 18,5.8427895,-73.0356266
1769511729,Calle 17A y Carrera 1D,5.8422749,-73.0361024
776796413,Calle 17A,5.8409726,-73.0359559
776796416,Calle 17A,5.8398452,-73.0358364
1769511654,Calle 17A y Calle 17,5.8384957,-73.0356541
7791956629,Calle 17A,5.837279,-73.0355492
1430298827,Carrera 6 y Calle 17A,5.8362738,-73.0354405
581029904,Calle 17A y Carrera 7A,5.8351762,-73.0352953
581025808,Carrera 7A y Calle 17,5.83498,-73.0362229
3489801317,Calle 17 y Carrera 8,5.8340946,-73.0360599
528861676,Avenida Circunvalar y Calle 16,5.8332329,-73.0365388
581025681,Avenida Circunvalar y Calle 15,5.8326927,-73.0372778
528035742,Calle 15,5.8315588,-73.0366013
528861649,Calle 15,5.8305286,-73.0359619
334402543,Calle 15 y Carrera 13,5.8294314,-73.0353156
334402547,Calle 17 y Carrera 13,5.8302832,-73.0339502
334402579,Calle 18,5.829867,-73.0327522
334406204,Calle 18,5.8290851,-73.0323033
7792656648,Calle 18,5.8279456,-73.031624
326266523,Carrera 18 y Calle 18,5.8269106,-73.0309814
326266521,Carrera 18 y Calle 17,5.8264684,-73.0318294
334400533,Carrera 18,5.8257057,-73.0332008
334402553,Carrera 18 y Calle 13,5.8249411,-73.0346558
8889115324,Carrera 18,5.824448,-73.0356506
326307111,Carrera 18 y Calle 10,5.8236655,-73.0370641
3821472559,Carrera 18,5.8231916,-73.0379085
343547848,Avenida de las Americas y Carrera 19,5.8221408,-73.0372749
689562855,Avenida de las Americas,5.821353,-73.0367676
689562853,Avenida de las Americas,5.8199997,-73.0359002
1412504126,Avenida de las Americas,5.8192145,-73.0353783
534511237,Avenida de las Americas y Carrera 25,5.8177892,-73.0344652
3481816319,Avenida de las Americas,5.8165224,-73.0336067
938180616,Avenida de las Americas,5.8153925,-73.0328647
8696832230,Avenida de las Americas,5.8143998,-73.0322184
1132052353,Avenida de las Americas,5.8135148,-73.0316653
5031513227,Avenida de las Americas,5.8127556,-73.031171
686622851,Avenida de las Americas y Carrera 35,5.8111116,-73.0301141
686622850,Avenida de las Americas y Carrera 38,5.8088124,-73.0286014
326042395,Avenida de las Americas y Carrera 42,5.8071633,-73.0275319
534324918,Carrera 42,5.8074571,-73.0257362
534324922,Carrera 42,5.8077262,-73.0245451
6960387014,Carrera 42,5.8079537,-73.0235951
6960387012,Carrera 42,5.8083693,-73.021617
4886327527,Carrera 42,5.8086322,-73.0204575
534324940,Calle 19,5.8080056,-73.0191029
534324938,Calle 19,5.8069206,-73.0184791
534324913,Carrera 45 y Calle 19,5.8062195,-73.018089
534324957,Carrera 45 y Calle 21,5.8070963,-73.0167688
534324963,Calle 21 y Carrera 43,5.8084427,-73.0176926
534324934,Calle 19 y Carrera 43,5.8076342,-73.0188847
534324942,Carrera 42 y Calle 19,5.8087846,-73.0197802
964923998,Carrera 42,5.8084737,-73.0216656
4395432525,Carrera 42,5.8082031,-73.0228836
2605726641,Carrera 42,5.8079559,-73.0239873
968865987,Carrera 42,5.8077111,-73.025036
539570864,Carrera 42,5.8073194,-73.0268269
4191747259,Avenida de las Americas,5.8074787,-73.0275618
530805493,Avenida de las Americas y Carrera 38,5.8088354,-73.0284734
686622852,Avenida de las Americas y Calle 9 y Carrera 35,5.8111521,-73.0299809
530743357,Calle 9,5.8120259,-73.0305638
5031513228,Calle 9,5.8128837,-73.0310945
5031513217,Avenida de las Americas,5.8136475,-73.0316088
938180685,Avenida de las Americas,5.8147917,-73.0323574
581973788,Avenida de las Americas,5.8157189,-73.0329602
581973794,Avenida de las Americas,5.8164892,-73.0334627
329281271,Avenida de las Americas,5.8178785,-73.034371
2215408445,Avenida de las Americas,5.8188519,-73.0349997
327218805,Avenida de las Americas y Carrera 22,5.8200495,-73.0357712
8902086160,Avenida de las Americas,5.8214712,-73.0366826
326307114,Carrera 19 y Calle 10,5.8226864,-73.0364134
326310252,Carrera 19 y Calle 11,5.8232614,-73.0354548
326583308,Carrera 19,5.8238511,-73.0345
326269721,Calle 14 y Carrera 19,5.8244535,-73.0334975
5891889357,Carrera 19,5.8251156,-73.0323578
669182158,Carrera 19 y Calle 17,5.8257459,-73.0313643
669182154,Calle 17 y Carrera 17,5.8272114,-73.032236
326320512,Calle 17,5.8286982,-73.0330427
1888904158,Calle 17,5.8300077,-73.0337728
528861662,Calle 17 y Carrera 12,5.831029,-73.0343829
528861651,Calle 16,5.830975,-73.0352746
366355569,Calle 16,5.8319774,-73.035832
326317047,Calle 16 y Avenida Circunvalar,5.8331716,-73.0364982
581025827,Carrera 7A y Calle 18,5.8353946,-73.0341613
776794848,Carrera 6 y Calle 18,5.8364705,-73.0343674
7791956631,Calle 18,5.8374107,-73.0345012
3489466100,Calle 18,5.8386013,-73.0346798
631348280,Calle 18,5.8400607,-73.0348728
1430298863,Calle 18,5.8411128,-73.0351002
410311586,Calle 18 y Carrera 1D,5.8419468,-73.0354285
1722313698,Calle 18,5.8468996,-73.0360955
1722313712,Calle 18,5.8479496,-73.035948
4371660308,Carrera 16,5.8379021,-73.0173149
4371660305,Carrera 16,5.8373419,-73.0183872
4422347450,Carrera 16,5.836826,-73.0191543
7792243370,Calle 32 y Carrera 16,5.8364045,-73.0200471
2605733307,Troncal Central del Norte,5.8355815,-73.0209402
685889554,Troncal Central del Norte,5.8348398,-73.0216451
2605733305,Troncal Central del Norte,5.8341378,-73.0222541
4197276593,Troncal Central del Norte,5.8330145,-73.0231804
7792519950,Troncal Central del Norte,5.8322585,-73.023671
3202891235,Troncal Central del Norte y Avenida Circunvalar,5.8313384,-73.0240799
579937388,Avenida Circunvalar,5.8299951,-73.0246339
6186251739,Avenida Circunvalar,5.8290856,-73.0250015
579961503,Carrera 18,5.8284132,-73.025944
579961482,Carrera 18 y Calle 22,5.8278165,-73.027289
579961469,Carrera 18,5.8273558,-73.0282898
326266528,Calle 20 y Carrera 18 y Carrera 19,5.8272507,-73.0291955
7794915428,Carrera 18,5.8270334,-73.0305295
334406203,Calle 17 y Carrera 16,5.8279867,-73.0326401
326326681,Calle 17 y Carrera 14,5.829461,-73.0334656
528861660,Calle 17,5.8317777,-73.0348244
4218056015,Calle 17,5.8327733,-73.0354022
690483423,Calle 17 y Avenida Circunvalar,5.8336103,-73.0358573
3488959124,Avenida Circunvalar,5.8330828,-73.0367789
1157104255,Avenida Circunvalar,5.8324959,-73.0374751
7792011364,Avenida Circunvalar,5.8316848,-73.0379583
631348194,Avenida Circunvalar,5.8305851,-73.0385354
631348197,Avenida Circunvalar,5.8296971,-73.0389595
631348191,Avenida Circunvalar,5.8288086,-73.0393785
631348091,Avenida Circunvalar,5.827872,-73.0398653
962325785,Avenida Circunvalar,5.8269607,-73.0406244
631348082,Avenida Circunvalar,5.8268767,-73.0420339
326518203,Avenida Circunvalar,5.8266045,-73.0429231
539157559,Avenida Circunvalar y Diagonal 4,5.8255732,-73.0435976
631348055,Diagonal 4 y Carrera 9,5.8263307,-73.0450717
631348038,Diagonal 4 y Carrera 8,5.8268205,-73.0460998
631348039,Calle 5 y Diagonal 4,5.8270803,-73.047108
631348025,Diagonal 4,5.8274552,-73.0482446
631348023,Carrera 3 y Diagonal 4,5.8280633,-73.0495421
881411523,Carrera 4 y Calle 2,5.7933521,-73.0657637
881398256,Calle 2,5.7918468,-73.0652502
890430393,Calle 2,5.7907717,-73.0648834
881383918,Calle 2,5.7895868,-73.0645778
6960387108,Troncal Central del Norte,5.7891572,-73.0662771
6960387110,Troncal Central del Norte,5.789044,-73.0681975
4335548294,Troncal Central del Norte,5.7889947,-73.0691737
1193206302,Troncal Central del Norte,5.7888857,-73.0711876
8435029351,Troncal Central del Norte,5.7888117,-73.07258
6960387119,Troncal Central del Norte,5.7886426,-73.0757304
5824038166,Troncal Central del Norte,5.7885667,-73.077347
5145761236,innominada,5.7884204,-73.0783946
6960387122,innominada,5.7881327,-73.0793293
6960387124,innominada,5.7870278,-73.082661
6960387128,innominada,5.7864071,-73.0845166
539778793,innominada,5.7860728,-73.0856413
5146050437,innominada,5.7858866,-73.0866196
539778788,innominada,5.7857879,-73.0875825
5146050429,innominada,5.7856805,-73.0893052
5146050426,innominada,5.7854423,-73.0889551
9057589818,innominada,5.7856994,-73.0868844
5145761231,innominada,5.7859413,-73.0856399
6960387127,innominada,5.7863114,-73.0844836
5824038174,innominada,5.7868929,-73.0827358
5824038168,innominada,5.7875262,-73.0808186
6960387121,innominada,5.7880288,-73.0792943
309457457,innominada,5.7883074,-73.07837
6960387120,Troncal Central del Norte,5.7884542,-73.0773529
2448474472,Troncal Central del Norte,5.7885258,-73.0759679
5824038159,Troncal Central del Norte,5.7885865,-73.0748223
6960387116,Troncal Central del Norte,5.7886579,-73.0732385
2482926531,Troncal Central del Norte,5.7887233,-73.0717394
4891038552,Troncal Central del Norte,5.788802,-73.0701837
6960387109,Troncal Central del Norte,5.7889169,-73.0681854
6960387107,Troncal Central del Norte,5.789038,-73.0662691
4737108000,Troncal Central del Norte,5.7891071,-73.0647161
4738006130,Troncal Central del Norte,5.7891829,-73.0634514
677989271,Troncal Central del Norte,5.789237,-73.0623007
6960387104,Troncal Central del Norte,5.7893015,-73.0612355
6876668195,Troncal Central del Norte,5.7894176,-73.0590107
539778823,Troncal Central del Norte,5.7894673,-73.0580607
8678135972,Troncal Central del Norte,5.7897596,-73.0559185
6876668194,Troncal Central del Norte,5.7900976,-73.0538314
1132077496,Troncal Central del Norte,5.7904524,-73.0518451
1132077469,Troncal Central del Norte,5.7908739,-73.0504873
1132077526,Troncal Central del Norte,5.7915176,-73.0488414
7804625096,Troncal Central del Norte,5.7922183,-73.0472406
1132077488,Troncal Central del Norte,5.7929596,-73.0456388
4399110774,Troncal Central del Norte,5.7935667,-73.0446813
5145424580,Troncal Central del Norte,5.7944346,-73.0438659
6960387096,Troncal Central del Norte,5.7953002,-73.0434208
5145417113,Troncal Central del Norte,5.796538,-73.043029
6960387088,Troncal Central del Norte,5.797575,-73.0427515
6960387082,Troncal Central del Norte,5.798496,-73.0425302
6960387080,Troncal Central del Norte,5.7997016,-73.042211
8435004484,Troncal Central del Norte,5.8007731,-73.0419609
534510630,Troncal Central del Norte,5.8017208,-73.0417241
1132077511,Troncal Central del Norte,5.8025542,-73.0413947
3473355964,Troncal Central del Norte,5.8033346,-73.0408612
534510632,Troncal Central del Norte,5.8041453,-73.0398708
6960387040,Carrera 42,5.8045593,-73.0385604
534315445,Carrera 42 y Carrera 36,5.8047983,-73.0375976
1912007824,Carrera 42,5.8052985,-73.0353162
534315503,Carrera 42,5.8056602,-73.0337256
6960387027,Carrera 42,5.8060474,-73.0320374
6960387029,Carrera 42,5.8062703,-73.0310661
534324858,Carrera 42 y Calle 7,5.8067316,-73.0289266
698684164,Avenida de las Americas y Carrera 42,5.8070639,-73.0274733
326266508,Carrera 18 y Avenida de las Americas,5.8232295,-73.0378486
326307109,Carrera 17 y Calle 10,5.8242917,-73.0374408
326265125,Carrera 17 y Calle 11,5.8248884,-73.036395
326581403,Carrera 17,5.8254266,-73.0353924
334400543,Calle 13 y Carrera 16,5.8263361,-73.0354509
2215458008,Calle 13,5.8274376,-73.0360785
1934232894,Calle 13 y Carrera 13,5.8286023,-73.0367481
5138902000,Calle 16,5.8301621,-73.0348094
1430298782,Calle 16 y Carrera 8,5.8340761,-73.0367837
581025685,Carrera 8,5.833683,-73.0378333
3493676561,Calle 14,5.833928,-73.0386641
631348239,Calle 14 y Carrera 7,5.8346061,-73.0394339
631348237,Calle 14,5.8351911,-73.0402199
1430359373,Calle 14,5.8359783,-73.0410579
434490384,Calle 14 y Carrera 5,5.8369774,-73.0414167
1635165510,Calle 14,5.8382888,-73.0419565
631348258,Calle 14,5.8384475,-73.0420692
685889614,Troncal Central del Norte,5.8476831,-73.0146743
685889608,Troncal Central del Norte,5.8467537,-73.0144281
685889597,Troncal Central del Norte,5.8458055,-73.0139773
685889590,Troncal Central del Norte,5.8446742,-73.0141442
685889582,Troncal Central del Norte,5.8438839,-73.0145637
685889579,Troncal Central del Norte,5.8428948,-73.014812
2605736785,Troncal Central del Norte,5.8419585,-73.0150151
685889570,Troncal Central del Norte,5.8409517,-73.015031
2605733303,Troncal Central del Norte,5.8407223,-73.0161779
685889564,Troncal Central del Norte,5.839721,-73.0177047
2605733317,Troncal Central del Norte,5.8390843,-73.0185321
2605733313,Troncal Central del Norte,5.8381686,-73.0193998
2605733309,Troncal Central del Norte,5.8370106,-73.0200494
2605733308,Troncal Central del Norte,5.8360405,-73.0206315
7792171283,Troncal Central del Norte,5.8351841,-73.0212745
689562811,Carrera 18,5.8223766,-73.0391944
689562790,Carrera 18,5.8216181,-73.0403775
2215433096,Carrera 18 y Calle 2A,5.8210542,-73.0412398
7801993296,Calle 2A,5.8218143,-73.0420788
687045468,Calle 2,5.8227875,-73.0423943
687045408,Calle 2,5.823508,-73.0432039
687045413,Carrera 12 y Calle 2,5.8242255,-73.0439878
4082937590,Calle 3,5.82483,-73.0443093
687045418,Carrera 9A y Calle 3,5.8252928,-73.0452054
687045391,Calle 1A y Carrera 9A,5.8243208,-73.0456753
687045386,Calle 1A,5.8251204,-73.0472006
7802077953,Calle 1A,5.8256072,-73.0480578
687045323,Calle 1A,5.8265238,-73.0492524
7802153041,Calle 1A,5.8272569,-73.0499765
1778441093,Calle 3 y Carrera 3,5.8278183,-73.0495156
687045364,Diagonal 4,5.8282368,-73.0499151
1771481618,innominada,5.8414349,-73.0229959
1771481567,innominada,5.8402041,-73.0230261
7792189595,innominada,5.8392847,-73.0227418
7792189593,innominada,5.8376501,-73.0224626
4197276625,Transversal 11,5.8368464,-73.0226161
7792189603,Transversal 11,5.8365637,-73.0237231
7792189601,Transversal 11,5.8362019,-73.0245567
5126936534,Transversal 15,5.8354665,-73.0253983
1722272297,Avenida Circunvalar y Transversal 15,5.8346453,-73.0264149
1722272280,Calle 16B y Avenida Circunvalar,5.8334835,-73.0256091
579937381,Calle 27,5.8334273,-73.0264587
579937410,Transversal 11 y Calle 27,5.8338245,-73.0272979
579937380,Transversal 11,5.8331672,-73.0280281
579937359,Calle 23 y Transversal 11,5.8321654,-73.0288676
579937355,Transversal 11,5.8311368,-73.02939
579937279,Transversal 11 y Calle 20,5.8296402,-73.0302873
1924809507,Calle 20,5.8285471,-73.0298949
579961442,Calle 20,5.8273155,-73.0292305
326266526,Carrera 18 y Calle 19,5.8271537,-73.0300866
4395368511,Carrera 48 y Calle 7B,5.8006667,-73.0274566
4768511512,Calle 7B,5.8015631,-73.027548
534324828,Calle 7,5.8016632,-73.0283624
679350176,Calle 7,5.8030455,-73.0284922
534324845,Calle 7,5.8042924,-73.0286123
530805523,Carrera 35,5.8114854,-73.0289415
366355539,Carrera 35,5.8118359,-73.0278871
530743390,Carrera 35,5.8121375,-73.0270023
865265467,Carrera 35,5.8126356,-73.025883
530805677,Transversal 37,5.8130303,-73.0250449
964924126,Transversal 37,5.8127323,-73.0240305
7861182284,Transversal 37,5.8127035,-73.0230745
530805684,Transversal 37,5.8125143,-73.0215355
530805686,Carrera 40 y Transversal 37,5.8123786,-73.020637
4880611672,Carrera 40,5.8119552,-73.0188443
534430747,Avenida Camilo Torres y Carrera 40,5.8113804,-73.0168827
8676045766,Avenida Camilo Torres,5.8119933,-73.0171057
4880611676,Avenida Camilo Torres,5.8129978,-73.0176482
8676005502,Avenida Camilo Torres,5.814242,-73.0183296
865650744,Avenida Camilo Torres,5.815361,-73.0189504
326523279,Avenida Camilo Torres y Transversal 20,5.8163785,-73.0195801
4373036610,Avenida Camilo Torres,5.8168994,-73.0203951
865741707,Avenida Camilo Torres,5.8171472,-73.0213069
8701037001,Avenida Camilo Torres,5.8176925,-73.0221879
7794911544,Avenida Camilo Torres,5.8182696,-73.0229158
8701005352,Avenida Camilo Torres,5.8193532,-73.0237194
326523248,Avenida Camilo Torres,5.8202775,-73.0243274
4373036614,Avenida Camilo Torres,5.820945,-73.0249424
530805753,Avenida Camilo Torres,5.8221409,-73.0257534
530805801,Avenida Camilo Torres,5.8231964,-73.0265418
336866634,Glorieta San José y Avenida Circunvalar,5.8239745,-73.0269597
865741661,Calle 20,5.8246899,-73.0278041
579961443,Calle 20,5.8256701,-73.0284064
579961452,Calle 20,5.826599,-73.0288542
7794915430,Carrera 18,5.8271714,-73.0299242
1412504182,Avenida Circunvalar,5.833877,-73.0351895
366355553,Avenida Circunvalar,5.8346485,-73.0339672
1722247635,Avenida Circunvalar,5.8353388,-73.0327392
860743513,Avenida Circunvalar y Carrera 10,5.8348361,-73.0320195
326516822,Avenida Circunvalar,5.8337524,-73.0316817
1722247607,Avenida Circunvalar,5.8332896,-73.0308604
434490635,Avenida Circunvalar y Diagonal 16,5.8336457,-73.0297896
844921848,Diagonal 16,5.8349939,-73.0295688
7791956633,Diagonal 16,5.8363629,-73.0292878
4335434171,Transversal 5A,5.8368557,-73.028376
1771481456,Transversal 5A,5.8375902,-73.0273497
1771481493,innominada,5.8384175,-73.026879
669111917,innominada,5.8398066,-73.0265113
1771481550,innominada,5.8400722,-73.0252253
7792134662,innominada,5.8401032,-73.0241375
1771481563,innominada,5.8401278,-73.0230873
7792134669,innominada,5.8406919,-73.02213
1771481601,innominada,5.8406897,-73.0211711
2261801896,innominada,5.8420413,-73.020952
1769053189,innominada,5.8433015,-73.0203338
677956783,Diagonal 4,5.8249947,-73.0429258
410298266,Diagonal 4,5.8243842,-73.0420477
539157567,Diagonal 4 y Carrera 16,5.8243462,-73.0411536
410298265,Carrera 16,5.8244751,-73.0400665
5918924633,Carrera 16,5.8246926,-73.0391693
366355524,Carrera 17 y Avenida de las Americas,5.8238422,-73.0383959
332333602,Calle 14 y Carrera 17,5.8260041,-73.0343569
334400535,Carrera 17 y Calle 16,5.8268525,-73.0329022
4768545624,Carrera 17,5.8274247,-73.031829
7794915421,Carrera 19,5.8264787,-73.0303141
1778393930,Carrera 18,5.8288934,-73.0251398
6186251738,Avenida Circunvalar,5.8301787,-73.0244575
1722293951,Avenida Circunvalar y Troncal Central del Norte,5.8311689,-73.0240652
7792519952,Avenida Circunvalar,5.8323083,-73.0245486
1722272279,Avenida Circunvalar,5.8332309,-73.0252527
4197276607,Avenida Circunvalar,5.8340819,-73.0259427
1722272308,Avenida Circunvalar,5.8347961,-73.0267908
7792011362,Avenida Circunvalar,5.834304,-73.0283551
1412504184,Avenida Circunvalar,5.8339479,-73.0293309
326517529,Avenida Circunvalar,5.8333688,-73.0310296
3488959133,Avenida Circunvalar,5.8344596,-73.0317736
1430298801,Avenida Circunvalar y Calle 20,5.8353712,-73.0322429
326517544,Avenida Circunvalar,5.8351463,-73.0333003
1430298788,Avenida Circunvalar,5.8342795,-73.0346968
773021040,Calle 4,5.8287531,-73.0503142
773021042,Torres y Calle 4,5.8295715,-73.0501876
1778441122,Torres,5.8306371,-73.0507177
773021056,Torres,5.8315554,-73.0507218
773021055,Torres,5.8324419,-73.0510272
773021051,Torres,5.8325039,-73.0519482
880691049,Vía a la Trinidad Becerras y Torres,5.8331498,-73.0527848
7802135301,Vía a la Trinidad Becerras,5.8333265,-73.0536764
1778441132,Vía a la Trinidad Becerras,5.8324832,-73.0552129
1778441124,Vía a la Trinidad Becerras,5.8314145,-73.0561277
7802187696,Vía a la Trinidad Becerras,5.8304296,-73.0565849
1778441116,Vía a la Trinidad Becerras,5.8298576,-73.0576526
1778441111,Vía a la Trinidad Becerras,5.8290067,-73.0581733
7802187700,Vía a la Trinidad Becerras,5.828415,-73.0590364
410301132,Vía a la Trinidad Becerras,5.828247,-73.0602928
7802185979,Vía a la Trinidad Becerras,5.8272435,-73.0614099
7802185981,Vía a la Trinidad Becerras,5.8262228,-73.0624266
4879242713,Vía a la Trinidad Becerras,5.8261601,-73.0636349
410301128,Vía a la Trinidad Becerras,5.8261275,-73.0648879
410301126,Vía a la Trinidad Becerras,5.8267852,-73.0655429
880691029,Vía a la Trinidad Becerras,5.8274524,-73.0666638
410301124,Vía a la Trinidad Becerras,5.8278462,-73.0681492
880691036,Vía a la Trinidad Becerras,5.8277331,-73.0695361
880691071,Vía a la Trinidad Becerras,5.8274644,-73.0706571
1135023295,Vía a la Trinidad Becerras,5.8276644,-73.0721781
880691111,Vía a la Trinidad Becerras,5.8279191,-73.0732786
4519611920,Vía a la trinidad Becerras y Vía a la Trinidad Becerras,5.8276325,-73.0744823
1133939011,Vía a la trinidad Becerras,5.8271694,-73.0759409
1133938994,Vía a la trinidad Becerras,5.8263345,-73.076486
1135023214,Vía Madrona,5.8246031,-73.0749364
1135023129,Vía Madrona,5.8236401,-73.0739221
1135023138,Vía Madrona,5.8229555,-73.0732523
7804303173,Vía Madrona,5.8218682,-73.0720615
1135023270,Vía Madrona,5.8202013,-73.0711734
4879242693,Vía Madrona,5.8193397,-73.0707947
1135023301,Vía Madrona,5.8184713,-73.0707493
1135023193,Vía Madrona,5.8179101,-73.0714793
7804337289,Vía Madrona,5.8173953,-73.0723125
1135023218,Vía Madrona,5.8159696,-73.0721744
1135023272,Vía Madrona,5.8143136,-73.0721427
5224114798,innominada,5.8147074,-73.0730829
1135023374,innominada,5.8155684,-73.075139
1135023266,Vía Bonza La Trinidad,5.817239,-73.0755608
1135023369,Vía Bonza La Trinidad,5.818812,-73.0757468
1135023381,Vía Bonza La Trinidad,5.8209023,-73.0760523
1135023298,Vía Bonza La Trinidad,5.8229365,-73.0767257
1133939000,Vía la trinidad y Vía Bonza La Trinidad,5.8254508,-73.0779325
1430359328,Calle 9A,5.8311206,-73.0449111
1156315266,Calle 9A,5.8305031,-73.0440671
631348153,Calle 9A,5.8299659,-73.0432177
1430381680,Calle 9A,5.8295022,-73.0423435
631348178,Carrera 10 y Calle 9A,5.8290967,-73.0413563
631348184,Carrera 10,5.8299296,-73.0405572
1430381698,Calle 10,5.830649,-73.0407415
631348204,Carrera 8 y Calle 10,5.8314839,-73.0414186
631348208,Carrera 8,5.8319646,-73.040474
631348225,Carrera 8,5.8325859,-73.0394153
631348219,Calle 14 y Carrera 8,5.8331674,-73.0382939
326518191,Avenida Circunvalar y Calle 14,5.8320502,-73.0377666
3505248288,Calle 15 y Carrera 9A,5.8320422,-73.0368862
528861640,Calle 15,5.8309476,-73.0362259
528861644,Calle 15,5.8301594,-73.0357297
7792656653,Calle 15,5.8289486,-73.035068
334402525,Carrera 14 y Calle 14,5.8281578,-73.0356393
4685258215,Calle 14,5.827067,-73.0349802
689562808,Calle 5,5.821332,-73.0395958
689562796,Calle 5,5.8202309,-73.0388895
689562758,Calle 5,5.8194276,-73.0383701
689562749,Carrera 23 y Calle 5,5.8182555,-73.0375047
4384780498,Calle 3 y Carrera 23,5.8177578,-73.0383111
938440835,Calle 3,5.8170326,-73.0377032
938180641,Calle 3,5.816216,-73.0370677
938180634,Calle 3,5.8154696,-73.0364195
2246920300,Carrera 25 y Carrera 26,5.8150297,-73.0357749
7795442103,Carrera 26,5.815907,-73.0353579
938180675,Calle 8 y Carrera 26,5.816632,-73.0344886
938440845,Calle 8,5.8158387,-73.0339929
690447119,Calle 8,5.8146464,-73.0332339
5917086560,Calle 8,5.8139081,-73.0327002
1212804193,Carrera 29,5.8135214,-73.0319554
1000506007,Avenida de las Americas y Glorieta Hospital,5.8131532,-73.0314636
904709010,Avenida de las Americas,5.8124353,-73.0309439
5917086556,Carrera 35,5.8107671,-73.0311721
904725664,Carrera 35,5.8104763,-73.0320736
956249370,Calle 6,5.8096204,-73.0318675
956249413,Calle 6,5.8087642,-73.031429
956249445,Calle 6,5.8077969,-73.0309319
534315507,Carrera 42 y Calle 6,5.8064537,-73.0307242
6960387028,Carrera 42,5.8061434,-73.0320588
6960387031,Carrera 42,5.8054379,-73.0351857
534315493,Carrera 42,5.8051573,-73.0364323
4384780486,Carrera 42 y Carrera 36,5.8049188,-73.0375442
4384780487,Calle 5A,5.8055102,-73.0302867
938180626,Carrera 25 y Calle 3,5.815512,-73.0359637
2246920309,Calle 3,5.8157821,-73.0367103
938440781,Calle 3,5.8165164,-73.0372894
938440821,Calle 3,5.8174563,-73.0380297
689562844,Carrera 23,5.818819,-73.0366916
689562849,Avenida de las Americas y Carrera 22A y Carrera 22,5.8199032,-73.0358386
689562857,Avenida de las Americas,5.8207885,-73.0362563
326269716,Avenida de las Americas y Carrera 19,5.8222013,-73.0371807
334402540,Carrera 13 y Calle 16,5.8298617,-73.0346422
631348229,Carrera 7 y Carrera 6B,5.8339013,-73.0406409
694832257,Carrera 8 y Carrera 6B,5.8323448,-73.0398505
631348217,Carrera 9,5.8321214,-73.0391917
631348220,Calle 14 y Carrera 9,5.832753,-73.0380897
3505248286,Avenida Circunvalar y Calle 14,5.8319738,-73.0377082
434490382,Calle 14B y Carrera 5,5.8376658,-73.0397535
580972438,Carrera 5,5.8375392,-73.0407066
3493676563,Calle 14,5.8352872,-73.0403203
434490392,Calle 14,5.8339952,-73.0386948
334402582,Carrera 16 y Calle 11,5.8256028,-73.0367414
326266516,Carrera 18 y Calle 11,5.8242604,-73.0360128
327219173,Calle 11 y Carrera 20A,5.8223658,-73.0349935
1934286110,Carrera 20A,5.8220475,-73.0353527
326310254,Carrera 21 y Calle 11,5.8216882,-73.0345987
327218890,Calle 11 y Carrera 22,5.8210787,-73.0339429
8902471601,innominada,5.82043,-73.0339265
587710542,Calle 14,5.8193638,-73.0341054
587710531,Transversal 10,5.8185046,-73.0333988
587710534,Transversal 10,5.8182217,-73.0323327
581973809,Carrera 28 y Calle 12,5.8169491,-73.0311331
581973811,Carrera 30 y Calle 12A,5.8167022,-73.0305464
5031513282,Carrera 30,5.8154974,-73.0310261
5031513204,Avenida Circunvalar,5.8141952,-73.0309282
1722293902,Avenida Circunvalar,5.8133612,-73.0312659
4398872190,Avenida de las Americas,5.8125946,-73.03105
956249342,Calle 3,5.8093571,-73.0323582
3823056359,Calle 3,5.8084309,-73.0322074
3823055545,Calle 3,5.8075698,-73.0314332
3823055505,Calle 3,5.8067299,-73.0311613
4395383311,innominada,5.8063545,-73.0317332
530805539,Carrera 38,5.8090358,-73.0274294
530805593,Calle 14 y Carrera 38,5.8096796,-73.0253562
530805556,Calle 14,5.8084025,-73.0249169
4395254073,Carrera 44,5.8082884,-73.0164226
534324968,Carrera 44 y Calle 21,5.8077533,-73.0172278
534324949,Carrera 43,5.8079804,-73.0183831
530805600,Calle 15,5.8092404,-73.0235062
530805608,Calle 15 y Carrera 38,5.8102452,-73.024066
530805614,Calle 15,5.811104,-73.024565
530805675,Carrera 35 y Calle 15,5.8128043,-73.0256507
366355532,Carrera 35,5.8123221,-73.0264397
530805658,Carrera 35,5.8118896,-73.0277246
530743354,Carrera 35,5.8115443,-73.0287757
530743353,Carrera 35,5.8111825,-73.0298561
5031513208,Avenida Circunvalar,5.8140738,-73.0308692
5031513200,Avenida Circunvalar,5.8150131,-73.0305085
587710520,Carrera 30,5.8158831,-73.0308982
581973799,Calle 10 y Carrera 28,5.8162568,-73.0321643
581973801,Calle 10,5.8170422,-73.032694
327185934,Calle 10,5.8184568,-73.0336241
329290188,Calle 14,5.8203617,-73.0338873
1934286087,Calle 12 y Calle 14,5.8212792,-73.0335971
334406201,Calle 12 y Carrera 20A,5.82259,-73.0342806
334402561,Carrera 19 y Calle 12,5.8236427,-73.034839
366355573,Calle 17 y Carrera 10,5.832389,-73.03517
326325410,Calle 17 y Avenida Circunvalar,5.8335268,-73.0358228
1430298785,Avenida Circunvalar,5.8342233,-73.0346283
3488959135,Avenida Circunvalar,5.8348594,-73.033597
844921753,Diagonal 16,5.838953,-73.028516
1771481584,Diagonal 16,5.8405148,-73.0282158
1771481617,Diagonal 16,5.8414295,-73.0279936
1771481645,Diagonal 16,5.8425462,-73.0273699
844921812,Diagonal 16,5.8435647,-73.0269159
844921757,Diagonal 16,5.845304,-73.02648
1769054301,Diagonal 16,5.8464416,-73.0265479
1769053206,Diagonal 16,5.8476667,-73.0264443
844921701,Diagonal 16,5.849521,-73.026199
844921707,innominada,5.852509,-73.0274175
844921850,innominada,5.853573,-73.027995
844921793,innominada,5.854762,-73.028508
5809191328,innominada,5.8558968,-73.0289465
7791790941,innominada,5.8572148,-73.0294674
844921809,innominada,5.8581,-73.029825
7791790944,innominada,5.8595155,-73.0302156
844921795,innominada,5.860487,-73.0304836
844921705,innominada,5.8616843,-73.0307696
3184654623,innominada,5.8628006,-73.0311111
844921697,innominada,5.8637554,-73.0314406
801680376,innominada,5.864287,-73.0315438
1132077486,innominada,5.7864697,-72.9967502
4395254066,innominada,5.7872706,-72.9959819
4395254068,innominada,5.7876385,-72.9950845
1132077467,innominada,5.7888512,-72.9952061
2605699908,innominada,5.78988,-72.9951035
3799845276,innominada,5.7911092,-72.9948299
3799845280,innominada,5.7919794,-72.9941752
8444995450,innominada,5.7922548,-72.9932309
5127515725,innominada,5.7925868,-72.9921239
3799845284,innominada,5.7928492,-72.991132
3799845286,Vía a Nobsa,5.7931492,-72.9902312
5127515733,Vía a Nobsa,5.7936587,-72.9919249
7804326395,Vía a Nobsa,5.7939422,-72.9928661
5918755936,Vía a Nobsa,5.7945874,-72.9949855
865265622,Vía a Nobsa y Vía Nobsa,5.7949121,-72.9962706
4038648793,innominada,5.7954226,-72.9970586
6960368255,innominada,5.7959978,-72.9977518
1132077514,innominada,5.7966526,-72.9984095
6960368259,innominada,5.797301,-72.9990814
8701031520,innominada,5.7979543,-72.9997483
7804657249,innominada,5.799315,-73.0011283
4763999278,innominada,5.8003753,-73.0021762
6960368263,innominada,5.8017973,-73.0036383
6960368270,innominada,5.8050553,-73.0070281
5173169177,innominada,5.8059381,-73.0079413
865265479,innominada,5.8068968,-73.0088967
865265650,innominada,5.8076255,-73.0097052
6960368280,innominada,5.8080498,-73.0105555
6960368284,innominada,5.808444,-73.0116183
6960386990,innominada,5.8088424,-73.0126993
6960386986,Carrera 42,5.8093641,-73.0141231
5918534004,Carrera 42,5.8096232,-73.0151943
865265660,Carrera 42,5.8096011,-73.0164672
6960386996,Carrera 42,5.8093079,-73.0179723
534430740,Carrera 42 y Calle 19,5.8088654,-73.0198648
1479587082,Calle 16,5.8135828,-73.02517
1477297797,Calle 16,5.8143783,-73.0256378
530743418,Carrera 32 y Calle 16,5.8153177,-73.026221
530743415,Calle 15,5.8155445,-73.0272747
530743430,Carrera 31 y Calle 15,5.8165102,-73.0278327
530743429,Calle 14 y Carrera 31,5.8160245,-73.0288362
530743410,Calle 14,5.8170445,-73.0290935
530743438,Avenida Circunvalar,5.8186258,-73.0291011
530743445,Avenida Circunvalar,5.8196568,-73.028794
1722293932,Avenida Circunvalar,5.8211126,-73.0283731
4225584723,Avenida Circunvalar,5.8220365,-73.0279778
336866698,Avenida Circunvalar,5.8235987,-73.0271831
1687329460,Diagonal 20 y Carrera 23,5.8247512,-73.0270157
579961466,Diagonal 20 y Calle 21,5.8260676,-73.0268432
579961476,Calle 22,5.8272357,-73.0269704
579961473,Carrera 18 y Calle 21,5.8276234,-73.0277062
579961467,Carrera 18,5.8273123,-73.0286118
581025783,Calle 17,5.834687,-73.0361718
4906779256,Carrera 1D,5.8424639,-73.0364839
1156315235,Calle 17,5.8431403,-73.0372207
1769054294,Calle 17,5.8440972,-73.037655
1156315225,Calle 17 y Carrera 1A,5.8448536,-73.0381542
1156315284,innominada,5.8453086,-73.0390429
1156315280,innominada,5.8458264,-73.0399847
1156315269,innominada,5.8464888,-73.0406703
1769054986,innominada,5.8473559,-73.0411663
1156315188,innominada,5.8480301,-73.041921
1156315290,innominada,5.8487019,-73.0427317
1156315267,innominada,5.8490816,-73.0436639
1156315255,innominada,5.8498857,-73.0447586
7795092086,Transversal 37,5.8126782,-73.0228413
530805679,Transversal 37,5.8127794,-73.0237737
1924820094,Carrera 13,5.8305196,-73.0335725
3749735397,Calle 18,5.8256704,-73.0301201
579961437,Diagonal 18A,5.8253052,-73.0289461
865741678,Calle 20 y Diagonal 18A,5.8249709,-73.0280625
327212885,Calle 20,5.8243098,-73.02744
1687232583,Glorieta San José y Carrera 24,5.8238365,-73.0269433
7794915437,Avenida Circunvalar,5.8248726,-73.0266029
1687171713,Carrera 23,5.8254227,-73.0255656
530805853,Carrera 23,5.8259848,-73.0243637
530805845,Carrera 23,5.8262816,-73.0234689
530805873,Vía Pueblito Boyacense,5.8263351,-73.0224362
1687171718,Vía Pueblito Boyacense,5.8254397,-73.0212184
7792519927,Vía Pueblito Boyacense,5.8253891,-73.0202436
1687171716,Vía Pueblito Boyacense,5.8254141,-73.0193155
1687171686,Vía Pueblito Boyacense,5.8250341,-73.018838
888905785,Calle 4 y Carrera 4,5.7940654,-73.0637203
888905869,Carrera 4,5.7937114,-73.0647337
534324943,Carrera 42,5.8089673,-73.0189876
6960386993,Carrera 42,5.8091907,-73.0180438
534324971,Carrera 42 y Calle 21C,5.8094582,-73.0167345
326523824,Avenida Camilo Torres y Carrera 42,5.8096533,-73.0158832
8676048710,Avenida Camilo Torres,5.8105213,-73.0163279
4880611668,Avenida Camilo Torres,5.8114047,-73.0167923
8676045765,Avenida Camilo Torres,5.8124516,-73.0173532
8676005503,Avenida Camilo Torres,5.8137851,-73.0180794
1687171603,Carrera 31A y Calle 21,5.8200227,-73.0234494
1687171606,Calle 21 y Carrera 30,5.8210005,-73.0240054
530805763,Calle 21,5.8219521,-73.0245465
1687232555,Calle 21,5.8227568,-73.0250036
1687232580,Calle 21,5.8237482,-73.025565
530805824,Calle 21,5.8246766,-73.0260958
1687171745,Calle 21,5.8256704,-73.0266476
579961464,Calle 22 y Diagonal 20 y Transversal 20,5.8267183,-73.0266943
5457360234,Calle 22,5.8276016,-73.0271712
579961468,Carrera 18,5.8274976,-73.0279844
334402551,Carrera 16,5.827136,-73.0340229
326306466,Carrera 16,5.8251415,-73.0379468
3821472561,Carrera 16,5.8249393,-73.038833
539157561,Carrera 16,5.8245444,-73.0403908
687045471,Diagonal 4,5.8244168,-73.04166
1786594495,Diagonal 4,5.8249697,-73.0427241
539157550,Avenida Circunvalar y Diagonal 4,5.8255194,-73.0434982
687045455,Carrera 9 y Calle 3,5.8254562,-73.0455219
687045449,Calle 3 y Carrera 8,5.8259985,-73.0465726
1778441067,Carrera 7,5.8257477,-73.0474826
1778441065,Calle 1A,5.8256924,-73.048223
687045327,Calle 1A y Carrera 6,5.8260385,-73.0487804
1779205553,Diagonal 4,5.8277554,-73.048996
687045458,Diagonal 4,5.8271443,-73.0476976
1779205551,Diagonal 4,5.8268973,-73.0466172
687045464,Diagonal 4 y Carrera 9,5.8262101,-73.0451293
687045462,Diagonal 4 y Carrera 10,5.8257591,-73.0441746
4373036615,Avenida Circunvalar,5.8260991,-73.04318
326519648,Avenida Circunvalar,5.8267139,-73.0424711
580961140,Avenida Circunvalar,5.8267738,-73.0413266
326519667,Avenida Circunvalar,5.826954,-73.0404285
527266331,Avenida Circunvalar,5.8278866,-73.0397406
5919056148,Avenida Circunvalar,5.8287729,-73.0392936
1412504164,Avenida Circunvalar,5.8305472,-73.0384596
3505248281,Avenida Circunvalar y Carrera 9A,5.8317044,-73.0378512
326316353,Calle 15 y Avenida Circunvalar,5.8326387,-73.0372459
1687171734,Diagonal 20,5.8255404,-73.0269114
1687329459,Diagonal 20,5.8241827,-73.0271352
530805802,Avenida Camilo Torres,5.8231239,-73.026626
1687171625,Avenida Camilo Torres,5.8223918,-73.0259993
7795043221,Avenida Camilo Torres,5.8210946,-73.0251696
2605733312,Avenida Camilo Torres,5.8202931,-73.0244691
326526259,Avenida Camilo Torres,5.8192501,-73.0237647
326526253,Avenida Camilo Torres,5.818402,-73.0231907
4519595076,Avenida Camilo Torres,5.8175019,-73.0220989
4519595917,Avenida Camilo Torres,5.8169706,-73.0210351
326526238,Avenida Camilo Torres,5.8166774,-73.0201097
5918755911,Transversal 20,5.816384,-73.0193285
530805718,Transversal 20,5.8157791,-73.0182847
534301881,Carrera 37A,5.8156865,-73.0169272
865650821,Vía Tocogua,5.8165156,-73.0164768
410298090,Vía Tocogua,5.8171023,-73.0157649
5857029639,Vía Tocogua,5.8178848,-73.0145585
865650756,Vía Tocogua,5.8182413,-73.0135478
4373036613,Vía Tocogua,5.8186027,-73.0126245
410298094,Vía Tocogua,5.8182027,-73.0112184
1624405271,Vía Tocogua,5.8182791,-73.0101526
1686558773,Vía Tocogua,5.8182382,-73.008982
865650872,Vía Tocogua,5.8180893,-73.0077007
1685145012,Vía Tocogua,5.8182416,-73.0066967
1685144995,innominada,5.8180237,-73.0058188
530805505,Avenida de las Americas,5.8095892,-73.028962
4668206384,Carrera 16,5.8278857,-73.0327977
966324928,Diagonal 4,5.8252456,-73.0432883
687045472,Diagonal 4,5.8246545,-73.0424805
3823005645,Diagonal 4,5.8243257,-73.0413632
1412504138,Carrera 16,5.8244313,-73.0403749
6960387016,Carrera 42,5.806845,-73.0289463
4384780488,Carrera 42 y Calle 5A,5.8065152,-73.0304121
963588696,Calle 3,5.8074415,-73.0312936
1133939061,Vía Bonza La Trinidad,5.8232636,-73.0768247
4879242697,Vía Bonza La Trinidad,5.8196671,-73.0758844
1135023221,Vía Bonza La Trinidad,5.8178968,-73.0756402
1135023341,Vía Bonza La Trinidad,5.8156006,-73.0753483
7804320649,Vía Bonza La Trinidad,5.814618,-73.0752245
2463089359,Vía Bonza La Trinidad,5.8134432,-73.0750718
1133939025,Vía Bonza La Trinidad,5.8114976,-73.0748382
2463089331,Vía Bonza La Trinidad,5.8099522,-73.074024
1133938980,Vía Bonza La Trinidad,5.8080326,-73.0727383
1133939026,Vía Bonza La Trinidad,5.8067834,-73.0722259
366355892,Vía Bonza La Trinidad,5.8074645,-73.0713533
366355881,Vía Bonza La Trinidad,5.8082328,-73.0686327
366355906,Vía Bonza La Trinidad,5.8087749,-73.0664825
366355909,Vía Bonza La Trinidad,5.8086525,-73.0651046
7804423534,Vía Bonza La Trinidad,5.8084407,-73.0643955
366355819,Vía Bonza La Trinidad,5.8075333,-73.0639295
366355801,Vía Bonza La Trinidad,5.8061117,-73.0630078
366355866,Vía Bonza La Trinidad,5.8046984,-73.0630838
7804423528,Vía Bonza La Trinidad,5.8037499,-73.0628851
366355848,Vía Bonza La Trinidad,5.8029131,-73.0624095
366355862,Vía Bonza La Trinidad,5.8017128,-73.0621273
4732392373,Vía Bonza La Trinidad,5.8004094,-73.0619721
4886324584,Vía Bonza La Trinidad,5.7993508,-73.06187
366355761,Vía Bonza La Trinidad,5.7982344,-73.0617623
4335548305,Vía Bonza La Trinidad,5.7971723,-73.0614441
4740514375,Vía Bonza La Trinidad,5.7956293,-73.0611462
2501036306,Vía Bonza La Trinidad,5.7943616,-73.0609483
621062516,Vía Bonza La Trinidad,5.7933516,-73.0604304
2509532884,Vía Bonza La Trinidad,5.7925085,-73.0598523
4737993598,Vía Bonza La Trinidad,5.7914968,-73.0597117
366355765,Vía Bonza La Trinidad,5.7904578,-73.0599201
4399143603,Vía Bonza La Trinidad,5.7896331,-73.0590119
366355633,Troncal Central del Norte,5.7894672,-73.0606712
366355645,Troncal Central del Norte,5.7895879,-73.0616006
690483421,Calle 19 y Carrera 17,5.8280478,-73.0306879
5173204278,innominada,5.8687687,-73.0281958
4401393740,innominada,5.8673271,-73.0280197
4401393738,innominada,5.8662623,-73.0275261
4401393733,innominada,5.8659808,-73.0276583
4401393730,innominada,5.865711,-73.0284293
4401393726,innominada,5.8647769,-73.0277584
3184654616,Ruta del Mundial,5.8639232,-73.0276445
3184654615,Ruta del Mundial,5.8627971,-73.0273279
5416669801,Ruta del Mundial,5.8617237,-73.0268935
3184654612,Ruta del Mundial,5.8606478,-73.026382
7791829779,Ruta del Mundial,5.8596928,-73.0261096
3184654608,Ruta del Mundial,5.8587607,-73.0261129
3184654605,Ruta del Mundial,5.8575612,-73.0257516
3184654600,Ruta del Mundial,5.8564496,-73.0260941
5809191336,Ruta del Mundial,5.8551551,-73.026272
3184654597,Ruta del Mundial,5.8537642,-73.0262487
3184654595,Ruta del Mundial,5.852809,-73.0262103
3184654594,Ruta del Mundial,5.8519206,-73.0260279
5644233335,Diagonal 16,5.8509833,-73.0260305
5644233156,Diagonal 16,5.8482013,-73.026382
1771481688,Diagonal 16,5.8455401,-73.0264941
844921691,Diagonal 16,5.844399,-73.026674
1771481678,Diagonal 16,5.843323,-73.0270201
1771481634,Diagonal 16,5.8422372,-73.0276095
844921861,Diagonal 16,5.841242,-73.028076
1771481428,Diagonal 16,5.8371827,-73.029012
844921694,Diagonal 16,5.8356962,-73.0294512
845192859,Diagonal 16 y Avenida Circunvalar,5.8337908,-73.029768
528035739,Calle 15,5.8323374,-73.0370609
579961500,Transversal 20,5.8277289,-73.0259595
1687171823,Transversal 20,5.8269518,-73.0265865
579961440,Diagonal 20,5.8251208,-73.0269657
327212321,Avenida Circunvalar,5.8228727,-73.0276597
4225486656,Avenida Circunvalar,5.8219566,-73.02811
1477297846,Avenida Circunvalar,5.8206369,-73.0286145
1412504125,Avenida Circunvalar,5.8192439,-73.0290154
327220144,Avenida Circunvalar y Calle 14,5.8176713,-73.0295534
1722293908,Avenida Circunvalar,5.8163968,-73.030081
5031513281,Avenida Circunvalar,5.8154934,-73.0304146
309456941,Carrera 31 y Carrera 35,5.8097848,-73.0326949
326608995,Carrera 31,5.8087905,-73.0333974
907418212,Carrera 31,5.8076898,-73.0348469
1212804190,Carrera 31,5.8070372,-73.0357976
1212804189,Carrera 31,5.8064877,-73.0366053
6960387054,Carrera 31,5.8059269,-73.0374615
6960387057,Carrera 31,5.8053399,-73.0383576
1412489697,Carrera 31,5.8052182,-73.0384208
4235856045,Carrera 10,5.8328369,-73.0343797
366355562,Carrera 10,5.833364,-73.0334295
860743523,Carrera 10,5.8342573,-73.0328597
4373036626,Avenida Circunvalar,5.8354528,-73.0324136
334402531,Calle 15 y Carrera 14,5.8286047,-73.0348917
669182152,Calle 14,5.8274425,-73.0351897
325949216,Avenida de las Americas y Carrera 17,5.8238544,-73.0382518
8108095127,Avenida de las Americas,5.8246484,-73.0386018
580961129,Carrera 16,5.8247702,-73.0393051
966323765,Calle 6,5.8271688,-73.0449808
631348047,Carrera 8 y Calle 6,5.8274796,-73.0457312
1769511726,Carrera 17 y Carrera 1E,5.8415447,-73.0367657
3489466097,Carrera 5,5.8377364,-73.0338693
1430298840,Carrera 5 y Calle 20,5.8377673,-73.0325056
1430298835,Calle 20,5.8367209,-73.0323072
1430298804,Calle 20,5.8356661,-73.0321246
7804753716,Calle 15,5.8088986,-73.0233165
530805624,Carrera 40,5.8094247,-73.0225465
530805625,Calle 17 y Carrera 40,5.8095863,-73.0222811
687045308,Carrera 14,5.8221277,-73.0441076
687045397,Carrera 12 y Calle 1,5.8232534,-73.0444632
687045417,Calle 2,5.824129,-73.0444208
687045400,Carrera 10 y Calle 1,5.8236046,-73.0451249
687045414,Carrera 9,5.8244959,-73.045133
8502427367,Avenida Circunvalar,5.8240815,-73.0270927
4373036607,Avenida Camilo Torres,5.8159698,-73.0194137
4373036606,Avenida Camilo Torres,5.8148878,-73.0187941
7794998801,Avenida Camilo Torres,5.8140467,-73.0183305
4880611675,Avenida Camilo Torres,5.8129464,-73.0177311
530805642,Avenida Camilo Torres,5.8117683,-73.0170777
326525192,Avenida Camilo Torres y Carrera 42,5.8096422,-73.0159776
4880611673,Carrera 42,5.8094775,-73.0171531
530805638,Carrera 42,5.8092407,-73.0182516
4395254063,Vía Duitama - Pantano de Vargas,5.7629198,-73.0579047
1026512987,Vía Duitama - Pantano de Vargas,5.7638703,-73.0572542
4738206771,Vía Duitama - Pantano de Vargas,5.7650016,-73.0569753
7329545310,Vía Duitama - Pantano de Vargas,5.7658655,-73.0567297
4738206769,Vía Duitama - Pantano de Vargas,5.767066,-73.0558712
4738206767,Vía Duitama - Pantano de Vargas,5.7678123,-73.0547301
679415385,Vía Duitama - Pantano de Vargas,5.768673,-73.0541575
7804668928,Vía Duitama - Pantano de Vargas,5.7701604,-73.0537164
7804668927,Vía Duitama - Pantano de Vargas,5.7713577,-73.0533306
7231010694,Vía Duitama - Pantano de Vargas,5.7723925,-73.0526092
7804668929,Vía Duitama - Pantano de Vargas,5.7736836,-73.0510019
7804692127,Vía Duitama - Pantano de Vargas,5.7750629,-73.0513801
7804668933,Vía Duitama - Pantano de Vargas,5.7765831,-73.0528515
7804668934,Vía Duitama - Pantano de Vargas,5.7773226,-73.0534977
682562354,Vía Duitama - Pantano de Vargas,5.7781803,-73.0537558
4891038530,Vía Duitama - Pantano de Vargas,5.779954,-73.0531477
5939321548,Vía Duitama - Pantano de Vargas,5.7825528,-73.0523725
539778821,Vía al Pantano y Vía Duitama - Pantano de Vargas,5.783877,-73.0519841
539778819,Vía al Pantano,5.7848906,-73.0517132
4732739164,Vía al Pantano,5.786633,-73.0506014
4732739160,Vía al Pantano,5.7878098,-73.0497317
5927162638,Vía al Pantano,5.7899388,-73.0477404
4732735072,Vía al Pantano,5.7923294,-73.0455222
539778832,Vía al Pantano,5.7930699,-73.0448351
539778830,Vía al Pantano,5.7938395,-73.0440339
539778828,Vía al Pantano,5.7942965,-73.0430424
539778835,Vía al Pantano,5.7954681,-73.0418614
5145417117,Vía al Pantano,5.7970771,-73.0418252
539778842,Vía al Pantano,5.7996732,-73.0418151
539778843,Troncal Central del Norte y Vía al Pantano,5.8005455,-73.0420203
7804800986,Carrera 31,5.8064107,-73.0365707
1412504095,Carrera 31,5.8074205,-73.035096
7804800990,Carrera 31,5.8082299,-73.0339149
4225468642,Carrera 31,5.8093373,-73.0329398
938180635,Calle 6 y Carrera 35,5.8103348,-73.0322313
530805525,Carrera 35,5.8110772,-73.0302353
964397656,Calle 9,5.8116977,-73.0303214
530743361,Calle 9 y Carrera 32,5.8125196,-73.0308616
1412523655,Glorieta Hospital y Avenida de las Americas,5.8132491,-73.0313405
4422347424,Troncal Central del Norte,5.8337982,-73.0225335
4422347431,Troncal Central del Norte,5.8345617,-73.0218864
4422347439,Troncal Central del Norte,5.8353965,-73.0210458
685889558,Troncal Central del Norte y Calle 32,5.8365255,-73.0203292
4371660303,Carrera 16,5.8367198,-73.0193491
5026987519,Carrera 16,5.8377873,-73.0175849
4371660310,innominada,5.8381746,-73.01675
4371660312,innominada,5.8388539,-73.0154481
4371660313,innominada,5.8392869,-73.0146186
5599015554,innominada,5.8397947,-73.0138431
4371660321,innominada,5.8400468,-73.0130206
4371660324,innominada,5.8409864,-73.0125415
4371660326,innominada,5.8419193,-73.0122235
4371660328,innominada,5.8427601,-73.0116206
4371660331,innominada,5.8433693,-73.0107158
4371660333,innominada,5.8442702,-73.0101779
4371660336,innominada,5.8449383,-73.0096782
2215433079,Calle 2W y Carrera 18,5.8199533,-73.0421145
2215433094,Calle 2A y Carrera 18,5.8208183,-73.0413052
7801993298,Calle 2A,5.8219365,-73.0417999
689562787,Calle 2 y Carrera 17,5.8223375,-73.0424017
7802047655,Calle 2,5.8231304,-73.0427683
687045407,Calle 2,5.82386,-73.0435995
677956771,Calle 3 y Carrera 12,5.8245767,-73.0438187
687045419,Calle 3 y Carrera 9,5.8250993,-73.0448308
687045456,Calle 3A y Carrera 9,5.8258329,-73.0453346
8451831809,Carrera 31,5.8048315,-73.0391733
3473355968,Troncal Central del Norte,5.8042251,-73.0399765
3473355965,Troncal Central del Norte,5.8034633,-73.0409332
6960387044,Troncal Central del Norte,5.8026132,-73.0415397
1132077518,Troncal Central del Norte,5.8013124,-73.0419744
6960387079,Troncal Central del Norte,5.8003163,-73.0422151
6960387083,Troncal Central del Norte,5.7985308,-73.0426589
6960387091,Troncal Central del Norte,5.7976742,-73.0430132
6960387095,Troncal Central del Norte,5.796258,-73.043577
1132077483,Troncal Central del Norte,5.7947005,-73.0440224
1132077541,Troncal Central del Norte,5.7938843,-73.0445273
1132077513,Troncal Central del Norte,5.7931142,-73.0455041
1132077507,Troncal Central del Norte,5.7925875,-73.0466723
1132077475,Troncal Central del Norte,5.7918823,-73.0482709
7804625095,Troncal Central del Norte,5.7914261,-73.0493445
2876772828,Troncal Central del Norte,5.7910051,-73.0504502
1132077534,Troncal Central del Norte,5.7906165,-73.0516656
2027180812,Troncal Central del Norte,5.7903168,-73.0532813
6960387100,Troncal Central del Norte,5.7899442,-73.055554
8675469446,Troncal Central del Norte,5.7896997,-73.0570169
6960387102,Troncal Central del Norte,5.7895724,-73.0584303
677989267,Troncal Central del Norte,5.7893824,-73.0631778
881307266,Troncal Central del Norte y Calle 2,5.7892538,-73.0643116
881383835,Calle 2,5.790128,-73.0646243
881411497,Carrera 2,5.7907879,-73.0637673
883278604,Carrera 2 y Calle 4,5.7911685,-73.0627222
883278489,Calle 4,5.7925251,-73.0631778
889011824,Calle 4,5.7935371,-73.0635403
